,Agency Name,City_x,State,2002,2003,2004,2005,2006,2007,2008,2009,2010,2011,2012,2013,2014,2015,2016,2017,2018,2019,2020,place_id,City_y,state_id,lat,lon
0,Bi-State Development Agency of the Missouri-Illinois Metropolitan District (BSD),Saint Louis,MO,46553815.0,45560777.0,45674019.0,47985332.0,51865809.0,56624016.0,58526156.0,47400588.0,41457228.0,44752930.0,47417981.0,47643528.0,47927320.0,45212996.0,42240010.0,39230870.0,37020579.0,36070228.0,20920212.0,"Saint Louis, MO",Saint Louis,MO,38.6358,-90.2451
1,Broward County Board of County Commissioners (BCT),Fort Lauderdale,FL,35388540.0,38272651.0,40800271.0,40532076.0,41644624.0,42283946.0,41978913.0,37501661.0,36728982.0,37359103.0,38982462.0,38554060.0,38825211.0,36730852.0,32296475.0,29466674.0,28273863.0,27122493.0,15007300.0,"Fort Lauderdale, FL",Fort Lauderdale,FL,26.1412,-80.1464
2,Capital Metropolitan Transportation Authority (CMTA),Austin,TX,54521901.0,35609590.0,35208841.0,34210764.0,34775654.0,35579398.0,38152155.0,34214084.0,33860685.0,33999725.0,36656877.0,35812971.0,33951336.0,34173055.0,29971800.0,29613712.0,29689086.0,31542602.0,18542014.0,"Austin, TX",Austin,TX,30.3004,-97.7522
3,Central Florida Regional Transportation Authority (LYNX),Orlando,FL,21985657.0,22668289.0,23873273.0,24469835.0,25216948.0,26790330.0,26898347.0,24213617.0,26281263.0,28487964.0,29530845.0,30005027.0,30105716.0,28800407.0,26930409.0,26009963.0,24777261.0,24652502.0,15110700.0,"Orlando, FL",Orlando,FL,28.4772,-81.3369
4,Central Ohio Transit Authority (COTA),Columbus,OH,16419464.0,15770592.0,15019288.0,15021229.0,14956349.0,15047061.0,16629953.0,16871765.0,17273168.0,19023293.0,18692312.0,18749186.0,19327199.0,19202519.0,18827815.0,18688788.0,19205244.0,19430144.0,10492348.0,"Columbus, OH",Columbus,OH,39.9862,-82.985
5,Central Puget Sound Regional Transit Authority (ST),Seattle,WA,672495.0,1017956.0,1711777.0,10955118.0,12256382.0,13764711.0,16128142.0,18808307.0,22729217.0,25107180.0,28439161.0,30260835.0,32942639.0,34668278.0,42732202.0,46795663.0,48188694.0,47805583.0,15870047.0,"Seattle, WA",Seattle,WA,47.6211,-122.3244
6,Chicago Transit Authority (CTA),Chicago,IL,485581318.0,471248669.0,474355494.0,492635673.0,494803222.0,499544308.0,526917832.0,521241837.0,516873050.0,531960248.0,545577917.0,529232404.0,514216811.0,515964831.0,497704252.0,479435218.0,468067963.0,455743541.0,197499793.0,"Chicago, IL",Chicago,IL,41.8373,-87.6862
7,City and County of San Francisco (SFMTA),San Francisco,CA,228218510.0,232118590.0,225476211.0,218857130.0,215967950.0,208163564.0,216257031.0,230840579.0,210579787.0,217757091.0,220123275.0,219092822.0,231073346.0,224738914.0,228112206.0,224380344.0,224493815.0,219258338.0,89067648.0,"San Francisco, CA",San Francisco,CA,37.7562,-122.443
8,City of Charlotte North Carolina (CATS),Charlotte,NC,15021342.0,15806757.0,16779888.0,18329658.0,19072555.0,20707295.0,26284716.0,24245103.0,25407810.0,27753007.0,28610111.0,29182216.0,28631673.0,26536842.0,25556000.0,23368033.0,23495067.0,24585693.0,12106549.0,"Charlotte, NC",Charlotte,NC,35.208,-80.8304
9,Connecticut Department of Transportation - CTTRANSIT - Hartford Division,Hartford,CT,13908784.0,13353283.0,12364660.0,12633392.0,13384396.0,13508820.0,14060947.0,13211268.0,13724226.0,14266845.0,14655500.0,14595887.0,14719861.0,15382796.0,15818064.0,15734598.0,16024755.0,15868859.0,10696919.0,"Hartford, CT",Hartford,CT,41.7661,-72.6834
10,County of Miami-Dade (MDT),Miami,FL,83662302.0,87987871.0,104782778.0,105970262.0,111090702.0,111265857.0,113555718.0,100786861.0,98742114.0,105948316.0,108529122.0,111324151.0,109667693.0,104534007.0,96608527.0,87129282.0,81416857.0,79304095.0,47771441.0,"Miami, FL",Miami,FL,25.7839,-80.2102
11,Dallas Area Rapid Transit (DART),Dallas,TX,67185817.0,63504974.0,56200546.0,59445077.0,63942702.0,71797447.0,67643095.0,62968120.0,60064649.0,65569023.0,71650592.0,70144337.0,71558160.0,69299577.0,65976123.0,64809511.0,64013447.0,69295731.0,40630522.0,"Dallas, TX",Dallas,TX,32.7936,-96.7662
12,Denver Regional Transportation District (RTD),Denver,CO,80923473.0,78625798.0,84300236.0,86371859.0,87150544.0,96203953.0,103452042.0,98733227.0,97361453.0,97960152.0,98518888.0,101352737.0,104291383.0,102250731.0,103340797.0,98077504.0,104708480.0,105207476.0,52349732.0,"Denver, CO",Denver,CO,39.7621,-104.8759
13,Fort Worth Transportation Authority (FWTA),Fort Worth,TX,7361986.0,6919980.0,6759357.0,7363029.0,8092776.0,8231841.0,8706416.0,8581097.0,8635834.0,7220372.0,8040687.0,7683862.0,8190844.0,7707702.0,7244476.0,6556401.0,5720095.0,6207907.0,3942202.0,"Fort Worth, TX",Fort Worth,TX,32.7811,-97.3473
14,"Golden Gate Bridge, Highway and Transportation District (GGBHTD)",San Francisco,CA,10529505.0,9953096.0,9575259.0,9443939.0,9569633.0,9358516.0,9671930.0,8717811.0,8644996.0,8900772.0,9010476.0,9042959.0,7463106.0,6177681.0,5871642.0,5723880.0,5717819.0,5563190.0,1538877.0,"San Francisco, CA",San Francisco,CA,37.7562,-122.443
15,Greater Dayton Regional Transit Authority (GDRTA),Dayton,OH,13518098.0,13059491.0,13054351.0,13128056.0,13497739.0,12504495.0,12821605.0,11013656.0,9920703.0,10417258.0,10068828.0,9742587.0,10718167.0,10348855.0,9973237.0,9072280.0,9128764.0,9416615.0,6061404.0,"Dayton, OH",Dayton,OH,39.7797,-84.1998
16,Indianapolis and Marion County Public Transportation (IndyGo),Indianapolis,IN,8673720.0,8839015.0,8405598.0,8395522.0,8678608.0,8690032.0,9934077.0,8457895.0,8757751.0,9510669.0,10243472.0,10525948.0,10575166.0,9951627.0,9494784.0,9064009.0,9119074.0,9517965.0,5907773.0,"Indianapolis, IN",Indianapolis,IN,39.7771,-86.1458
17,King County Department of Metro Transit (KCM),Seattle,WA,97465708.0,97592750.0,100346336.0,98877227.0,106519593.0,113814623.0,122437932.0,115947300.0,113637309.0,117087190.0,119952289.0,123192047.0,125340417.0,126268531.0,127384761.0,127954193.0,129054197.0,128666612.0,60165934.0,"Seattle, WA",Seattle,WA,47.6211,-122.3244
18,Los Angeles County Metropolitan Transportation Authority (LACMTA),Los Angeles,CA,436152237.0,389303120.0,436867661.0,462214009.0,490963342.0,482163018.0,487818141.0,466128474.0,456649218.0,460527664.0,472458381.0,481949713.0,468886475.0,445164921.0,419499246.0,401095618.0,387108244.0,373702216.0,215529565.0,"Los Angeles, CA",Los Angeles,CA,34.1139,-118.4068
19,MTA New York City Transit (NYCT),Brooklyn,NY,2717467331.0,2605828163.0,2682958508.0,3133872869.0,3192513535.0,3257000105.0,3319694296.0,3204628609.0,3285525453.0,3315145415.0,3379209075.0,3473264504.0,3563926346.0,3450049313.0,3472541947.0,3441693195.0,3369354401.0,3462578041.0,1538375731.0,"Brooklyn, NY",Brooklyn,NY,40.6501,-73.9496
20,Maryland Transit Administration (MTA),Baltimore,MD,110670817.0,116572889.0,112221302.0,112625319.0,102559280.0,110089188.0,115404791.0,119321705.0,120640880.0,117444808.0,107991025.0,111507545.0,116245702.0,112570243.0,107137398.0,99638595.0,94826928.0,94064450.0,52333335.0,"Baltimore, MD",Baltimore,MD,39.3051,-76.6144
21,Massachusetts Bay Transportation Authority (MBTA),Boston,MA,342880295.0,346999939.0,393529343.0,384353620.0,382445521.0,367862671.0,384747696.0,371260221.0,363506020.0,390163281.0,400901196.0,400210917.0,413980833.0,398593667.0,392882044.0,380108259.0,370307249.0,366337756.0,148952250.0,"Boston, MA",Boston,MA,42.3188,-71.0846
22,"Metro-North Commuter Railroad Company, dba: MTA Metro-North Railroad (MTA-MNCR)",New York,NY,71880666.0,71437794.0,71120717.0,73170791.0,75587091.0,78830142.0,82126358.0,78573828.0,79780935.0,80923290.0,83357303.0,83828218.0,84976450.0,86299452.0,86872761.0,86949250.0,92437511.0,92012752.0,29537783.0,"New York, NY",New York,NY,40.6943,-73.9249
23,Metropolitan Atlanta Rapid Transit Authority (MARTA),Atlanta,GA,150398196.0,137703806.0,137891337.0,140166110.0,143934416.0,146862826.0,158553710.0,150259022.0,143358605.0,136789779.0,131126031.0,130783062.0,134064006.0,134701361.0,127766817.0,124423141.0,117640177.0,114788595.0,57230206.0,"Atlanta, GA",Atlanta,GA,33.7627,-84.4224
24,New Jersey Transit Corporation,Newark,NJ,226105653.0,220810746.0,235216003.0,247724758.0,262569153.0,272792388.0,281604129.0,273316731.0,264527821.0,260766991.0,266053628.0,270218442.0,275086199.0,276701203.0,272634616.0,265866236.0,265939862.0,267515046.0,123310097.0,"Newark, NJ",Newark,NJ,40.7245,-74.1725
25,New Orleans Regional Transit Authority (NORTA),New Orleans,LA,46557922.0,42602554.0,41264251.0,24518402.0,0.0,8309769.0,11366812.0,11487093.0,13818194.0,15668314.0,22885163.0,21785238.0,19467590.0,19637287.0,19765652.0,19888262.0,18981661.0,16316609.0,7631384.0,"New Orleans, LA",New Orleans,LA,30.0687,-89.9288
26,Northeast Illinois Regional Commuter Railroad Corporation,Chicago,IL,69354239.0,69164745.0,67515557.0,69826451.0,72066626.0,75214313.0,77167066.0,71552171.0,70482178.0,72305980.0,74246585.0,73603167.0,74382144.0,72631171.0,72289606.0,70592215.0,68446239.0,61456663.0,16731031.0,"Chicago, IL",Chicago,IL,41.8373,-87.6862
27,Northern Indiana Commuter Transportation District (NICTD),Chesterton,IN,3589227.0,3568171.0,3544188.0,3803558.0,4208188.0,4245922.0,4180380.0,3885073.0,3714147.0,3706293.0,3668098.0,3606926.0,3613608.0,3617266.0,3504080.0,3455842.0,3400197.0,3283603.0,995049.0,"Chesterton, IN",Chesterton,IN,41.5997,-87.0548
28,Pace - Suburban Bus Division,Arlington Heights,IL,34879156.0,33454118.0,34356451.0,36846752.0,37842208.0,36534353.0,37720405.0,32221701.0,32283992.0,33715648.0,35399699.0,35925752.0,34790816.0,33116782.0,31169635.0,31370499.0,30207856.0,28520701.0,14565492.0,"Arlington Heights, IL",Arlington Heights,IL,42.0955,-87.9825
29,Peninsula Corridor Joint Powers Board (PCJPB),San Carlos,CA,8978675.0,8104320.0,9849185.0,10970064.0,11735134.0,12738573.0,14359190.0,13459650.0,13603397.0,14004119.0,15073327.0,17039639.0,18249755.0,18349288.0,19155304.0,17615823.0,19154997.0,18144687.0,4834234.0,"San Carlos, CA",San Carlos,CA,37.4982,-122.268
30,Port Authority of Allegheny County,Pittsburgh,PA,73845439.0,67959081.0,67830632.0,69668461.0,70423904.0,69020632.0,68523842.0,67620319.0,65099392.0,63547122.0,65458688.0,63838601.0,64798297.0,64007396.0,63608984.0,62991941.0,64221712.0,64149462.0,30143884.0,"Pittsburgh, PA",Pittsburgh,PA,40.4396,-79.9762
31,Rhode Island Public Transit Authority (RIPTA),Providence,RI,15056374.0,19815954.0,20884050.0,23009621.0,25671120.0,25873927.0,21398535.0,17891013.0,18128252.0,19007989.0,20177582.0,20425175.0,19804505.0,18133557.0,17370952.0,16414097.0,16668770.0,16419312.0,9084338.0,"Providence, RI",Providence,RI,41.823,-71.4187
32,San Diego Metropolitan Transit System (MTS),San Diego,CA,31461687.0,26795671.0,24708267.0,24797281.0,25310534.0,27218856.0,87011062.0,81173196.0,78880081.0,84193158.0,84321250.0,86027365.0,93221520.0,95389249.0,89542225.0,86549922.0,85347405.0,86551000.0,45951083.0,"San Diego, CA",San Diego,CA,32.8312,-117.1225
33,San Francisco Bay Area Rapid Transit District (BART),Oakland,CA,95161017.0,94914610.0,98630556.0,101491332.0,105980376.0,112444082.0,117236548.0,110422203.0,108275088.0,114325389.0,123367070.0,124747262.0,132287368.0,136003232.0,136246897.0,130337963.0,128662311.0,127592425.0,35138807.0,"Oakland, CA",Oakland,CA,37.7903,-122.2165
34,Santa Clara Valley Transportation Authority (VTA),San Jose,CA,51421843.0,42581269.0,39122283.0,39133891.0,42558461.0,44187034.0,46651435.0,44359538.0,42077520.0,43170314.0,43740992.0,44420956.0,44847517.0,45423203.0,41332507.0,38032917.0,37087276.0,36254030.0,15942485.0,"San Jose, CA",San Jose,CA,37.3019,-121.8486
35,Southeastern Pennsylvania Transportation Authority (SEPTA),Philadelphia,PA,297866962.0,300081675.0,332095715.0,328606116.0,326825073.0,320902321.0,329755213.0,319792409.0,332158191.0,336023881.0,348736973.0,356930340.0,345333888.0,351132408.0,336283346.0,322543159.0,316235213.0,310266311.0,136852495.0,"Philadelphia, PA",Philadelphia,PA,40.0077,-75.1339
36,Staten Island Rapid Transit Operating Authority (SIRTOA),Staten Island,NY,3563232.0,3429174.0,3358318.0,3480967.0,3809460.0,4171257.0,7860630.0,7218047.0,7635883.0,7516908.0,6467898.0,6985193.0,8301794.0,8557009.0,8614320.0,8244129.0,8129661.0,7731849.0,2713941.0,"Staten Island, NY",Staten Island,NY,40.5834,-74.1496
37,The Greater Cleveland Regional Transit Authority (GCRTA),Cleveland,OH,52624708.0,53406629.0,56028769.0,63975476.0,69249802.0,60848950.0,61597123.0,46970978.0,44624503.0,46210113.0,48234103.0,49206288.0,49245883.0,47021539.0,44237040.0,39631317.0,35162692.0,32171825.0,16862761.0,"Cleveland, OH",Cleveland,OH,41.4767,-81.6804
38,Tri-County Metropolitan Transportation District of Oregon,Portland,OR,89472339.0,89841042.0,95560394.0,96851889.0,96964303.0,98410615.0,103637325.0,100076099.0,104768653.0,106071387.0,106476226.0,98639172.0,102055527.0,101442047.0,100091658.0,98026220.0,97071135.0,97070628.0,49899956.0,"Portland, OR",Portland,OR,45.5372,-122.65
39,Utah Transit Authority (UTA),Salt Lake City,UT,30944603.0,32582213.0,34629811.0,36160914.0,37778327.0,35185283.0,39523205.0,37965873.0,39040703.0,41558034.0,42347333.0,44265378.0,46279544.0,46721584.0,45521914.0,45078919.0,44176331.0,44578161.0,23559294.0,"Salt Lake City, UT",Salt Lake City,UT,40.7777,-111.9306
40,VIA Metropolitan Transit (VIA),San Antonio,TX,38210955.0,37605142.0,38025362.0,40657272.0,43778237.0,42860095.0,47052709.0,43121820.0,43218468.0,46146794.0,47507874.0,45300852.0,43102749.0,39505160.0,38663980.0,37837352.0,38872815.0,43907287.0,27667398.0,"San Antonio, TX",San Antonio,TX,29.4658,-98.5253
41,"Valley Metro Rail, Inc. (VMR)",Phoenix,AZ,0.0,0.0,0.0,0.0,0.0,0.0,0.0,11348341.0,12616937.0,13161638.0,14042008.0,14226293.0,14263662.0,14759817.0,16303599.0,16268923.0,15406410.0,15060207.0,8557187.0,"Phoenix, AZ",Phoenix,AZ,33.5722,-112.0891
42,Washington Metropolitan Area Transit Authority (WMATA),Washington,DC,395302375.0,396388683.0,393043291.0,395017558.0,409520629.0,416725775.0,430780930.0,429008678.0,415377200.0,424590298.0,418734638.0,415798388.0,410939190.0,393165745.0,359280525.0,353984721.0,351541048.0,364849355.0,128648622.0,"Washington, DC",Washington,DC,38.9047,-77.0163
43,Washington State Ferries (WSF),Olympia,WA,25138549.0,24376276.0,24071853.0,23817486.0,23860207.0,23599410.0,22654332.0,22753817.0,22450482.0,22361427.0,22190847.0,22546383.0,23139886.0,23887137.0,24192768.0,24480626.0,24686911.0,23884515.0,13986663.0,"Olympia, WA",Olympia,WA,47.0417,-122.8959
